[
{
  "name": "Harbory",
  "address": "8195 Express Drive Marion, Illinois 62959",
  "lat": "37.745975",
  "long": "-89.008412",
  "city": "Marion, IL",
  "phone": "(618)969-8217",
  "medicalCannabisDistrict": "13",
  "licenseIssueDate": "2015-08-24",
  "licenseExpirationDate": "2016-08-24",
  "credentialNumber": "280.000001-DISP",
  "registryId": "13-001"
},
{
  "name": "The Clinic Mundelein",
  "address": "1325 Armour Blvd Mundelein, Illinois 60060",
  "lat": "42.238042",
  "long": "-87.983884",
  "city": "Mundelein, Illinois",
  "phone": "(847)616-8966",
  "medicalCannabisDistrict": "27",
  "licenseIssueDate": "2015-09-17",
  "licenseExpirationDate": "2016-09-17",
  "credentialNumber": "280.000002-DISP",
  "registryId": "27-001"
},
{
  "name": "Salveo Health & Wellness Dispensary",
  "address": "3104 N. Main Street Canton, Illinois 61520",
  "lat": "40.598265",
  "long": "-90.033137",
  "city": "Canton, Illinois",
  "phone": "(309)647-9333",
  "medicalCannabisDistrict": "14",
  "licenseIssueDate": "2015-09-18",
  "licenseExpirationDate": "2016-09-18",
  "credentialNumber": "280.000003-DISP",
  "registryId": "14-001"
},
{
  "name": "Herbal Remedies Dispensary",
  "address": "4440 Broadway Suite A Quincy, Illinois 62301",
  "lat": "39.935058",
  "long": "-91.344580",
  "city": "Quincy, Illinois",
  "phone": "(217)214-6337",
  "medicalCannabisDistrict": "20",
  "licenseIssueDate": "2015-09-24",
  "licenseExpirationDate": "2016-09-24",
  "credentialNumber": "280.000004-DISP",
  "registryId": "20-001"
},
{
  "name": "EarthMed",
  "address": "852 South Westgate Addison, Illinois 60101",
  "lat": "41.910777",
  "long": "-87.993678",
  "city": "Addison, Illinois",
  "phone": "(630)607-0796",
  "medicalCannabisDistrict": "24",
  "licenseIssueDate": "2015-10-21",
  "licenseExpirationDate": "2016-10-21",
  "credentialNumber": "280.000005-DISP",
  "registryId": "24-002"
},
{
  "name": "PharmaCannis Health & Wellness",
  "address": "161 S. Lincolnway St, Suite 30 North Aurora, Illinois 60542",
  "lat": "41.800036",
  "long": "-88.324454",
  "city": "North Aurora, Illinois",
  "phone": "(630)264-0890",
  "medicalCannabisDistrict": "26",
  "licenseIssueDate": "2015-10-27",
  "licenseExpirationDate": "2016-10-27",
  "credentialNumber": "280.000006-DISP",
  "registryId": "26-002"
},
{
  "name": "PharmaCannis Health & Wellness",
  "address": "1135 Tower Road Schaumburg, Illinois 60173",
  "lat": "42.055214",
  "long": "-88.052744",
  "city": "Schaumburg, Illinois",
  "phone": "(847)755-2992",
  "medicalCannabisDistrict": "31",
  "licenseIssueDate": "2015-10-27",
  "licenseExpirationDate": "2016-10-27",
  "credentialNumber": "280.000007-DISP",
  "registryId": "31-001"
},
{
  "name": "PharmaCannis Health & Wellness",
  "address": "4100 North Columbus St, Unit B Ottawa, Illinois 61350",
  "lat": "41.379518",
  "long": "-88.835173",
  "city": "Ottawa, Illinois",
  "phone": "(815)324-9189",
  "medicalCannabisDistrict": "17",
  "licenseIssueDate": "2015-10-28",
  "licenseExpirationDate": "2016-10-28",
  "credentialNumber": "280.000008-DISP",
  "registryId": "17-001"
},
{
  "name": "PharmaCannis Health & Wellness",
  "address": "1804 Maple Avenue Evanston, Illinois 60201",
  "lat": "42.050101",
  "long": "-87.684796",
  "city": "Evanston, Illinois",
  "phone": "(815)324-9189",
  "medicalCannabisDistrict": "34",
  "licenseIssueDate": "2015-11-09",
  "licenseExpirationDate": "2016-11-09",
  "credentialNumber": "280.000009-DISP",
  "registryId": "34-001"
},
{
  "name": "Mapleglen Care Center",
  "address": "4777 Stenstrom Road Rockford, Illinois 61109",
  "lat": "42.224354",
  "long": "-89.023472",
  "city": "Rockford, Illinois",
  "phone": "(815)516-0087 ",
  "medicalCannabisDistrict": "16",
  "licenseIssueDate": "2015-11-16",
  "licenseExpirationDate": "2016-11-16",
  "credentialNumber": "280.000010-DISP",
  "registryId": "16-002"
},
{
  "name": "3C Compassionate Care Center",
  "address": "1627 Rock Creek Boulevard Joliet, Illinois 60431",
  "lat": "41.491136",
  "long": "-88.172436",
  "city": "Joliet, Illinois",
  "phone": "(000)000-0000",
  "medicalCannabisDistrict": "29",
  "licenseIssueDate": "2015-11-19",
  "licenseExpirationDate": "2016-11-19",
  "credentialNumber": "280.000011-DISP",
  "registryId": "29-002"
},
{
  "name": "Dispensary 33",
  "address": "5001 N. Clark Street Chicago, Illinois 60640",
  "lat": "41.972677",
  "long": "-87.667665",
  "city": "Joliet, Illinois",
  "phone": "(312)620-3333",
  "medicalCannabisDistrict": "44",
  "licenseIssueDate": "2015-11-19",
  "licenseExpirationDate": "2016-11-19",
  "credentialNumber": "280.000012-DISP",
  "registryId": "44-001"
},
{
  "name": "MedMar Rockford, LLC",
  "address": "2696 McFarland Road Rockford, Illinois 61107",
  "lat": "42.299635",
  "long": "-88.978961",
  "city": "Rockford, Illinois",
  "phone": "(800)789-2310",
  "medicalCannabisDistrict": "16",
  "licenseIssueDate": "2015-11-24",
  "licenseExpirationDate": "2016-11-24",
  "credentialNumber": "280.000013-DISP",
  "registryId": "16-001"
},
{
  "name": "Trinity Compassionate Care Centers",
  "address": "23125 N. University, Suite B Peoria, IL 61604",
  "lat": "40.720123",
  "long": "-89.612900",
  "city": "Peoria, Illinois",
  "phone": "(309)863-2122",
  "medicalCannabisDistrict": "8",
  "licenseIssueDate": "2015-11-30",
  "licenseExpirationDate": "2016-11-30",
  "credentialNumber": "280.000014-DISP",
  "registryId": "08-002"
},
{
  "name": "New Age Care",
  "address": "2015 E Euclid Ave, Mount Prospect, IL 60056",
  "lat": "42.087669",
  "long": "-87.893637",
  "city": "Mount Prospect, Illinois",
  "phone": "(224)801-2015",
  "medicalCannabisDistrict": "32",
  "licenseIssueDate": "2015-12-01",
  "licenseExpirationDate": "2016-12-01",
  "credentialNumber": "280.000015-DISP",
  "registryId": "32-001"
}
]
